Status,Completed
Unauthorized_Changes_Found,No
Timestamp,20220202-074723
Status,Completed
Unauthorized_Changes_Found,No
Timestamp,20220202-075459
Status,Completed
Unauthorized_Changes_Found,No
Timestamp,20220202-080120
Status,Completed
Unauthorized_Changes_Found,No
Timestamp,20220202-080138
Status,Completed
Unauthorized_Changes_Found,No
Timestamp,20220202-081635
Status,Completed
Unauthorized_Changes_Found,No
Timestamp,20220202-083115
Status,Completed
Unauthorized_Changes_Found,No
Timestamp,20220202-084613
Status,Completed
Unauthorized_Changes_Found,No
Timestamp,20220202-090115
Status,Completed
Unauthorized_Changes_Found,No
Timestamp,20220202-091620
Status,Completed
Unauthorized_Changes_Found,No
Timestamp,20220202-093114
Status,Completed
Unauthorized_Changes_Found,No
Timestamp,20220202-094635
Status,Completed
Unauthorized_Changes_Found,No
Timestamp,20220202-100119
Status,Completed
Unauthorized_Changes_Found,No
Timestamp,20220202-101617
Status,Completed
Unauthorized_Changes_Found,No
Timestamp,20220202-103115
Status,Completed
Unauthorized_Changes_Found,No
Timestamp,20220202-104619
Status,Completed
Unauthorized_Changes_Found,No
Timestamp,20220202-110117
Status,Completed
Unauthorized_Changes_Found,No
Timestamp,20220202-111617
Status,Completed
Unauthorized_Changes_Found,No
Timestamp,20220202-113116
Status,Completed
Unauthorized_Changes_Found,No
Timestamp,20220202-114618
Status,Completed
Unauthorized_Changes_Found,No
Timestamp,20220202-120122
Status,Completed
Unauthorized_Changes_Found,No
Timestamp,20220202-121618
Status,Completed
Unauthorized_Changes_Found,No
Timestamp,20220202-123115
Status,Completed
Unauthorized_Changes_Found,No
Timestamp,20220202-124617
Status,Completed
Unauthorized_Changes_Found,No
Timestamp,20220202-130116
Status,Completed
Unauthorized_Changes_Found,No
Timestamp,20220202-131618
Status,Completed
Unauthorized_Changes_Found,No
Timestamp,20220202-133117
Status,Completed
Unauthorized_Changes_Found,No
Timestamp,20220202-134618
Status,Completed
Unauthorized_Changes_Found,No
Timestamp,20220202-140119
Status,Completed
Unauthorized_Changes_Found,No
Timestamp,20220202-141618
Status,Completed
Unauthorized_Changes_Found,No
Timestamp,20220202-143117
Status,Completed
Unauthorized_Changes_Found,No
Timestamp,20220202-144617
Status,Completed
Unauthorized_Changes_Found,No
Timestamp,20220202-150121
Status,Completed
Unauthorized_Changes_Found,No
Timestamp,20220202-151618
Status,Completed
Unauthorized_Changes_Found,No
Timestamp,20220202-153114
Status,Completed
Unauthorized_Changes_Found,No
Timestamp,20220202-154615
Status,Completed
Unauthorized_Changes_Found,No
Timestamp,20220202-160124
Status,Completed
Unauthorized_Changes_Found,No
Timestamp,20220202-161617
Status,Completed
Unauthorized_Changes_Found,No
Timestamp,20220202-163118
Status,Completed
Unauthorized_Changes_Found,No
Timestamp,20220202-164614
Status,Completed
Unauthorized_Changes_Found,No
Timestamp,20220202-170116
Status,Completed
Unauthorized_Changes_Found,No
Timestamp,20220202-171617
Status,Completed
Unauthorized_Changes_Found,No
Timestamp,20220202-173115
Status,Completed
Unauthorized_Changes_Found,No
Timestamp,20220202-174638
Status,Completed
Unauthorized_Changes_Found,No
Timestamp,20220202-180117
Status,Completed
Unauthorized_Changes_Found,No
Timestamp,20220202-181621
Status,Completed
Unauthorized_Changes_Found,No
Timestamp,20220202-183112
Status,Completed
Unauthorized_Changes_Found,No
Timestamp,20220202-184616
Status,Completed
Unauthorized_Changes_Found,No
Timestamp,20220202-190119
Status,Completed
Unauthorized_Changes_Found,No
Timestamp,20220202-191643
Status,Completed
Unauthorized_Changes_Found,No
Timestamp,20220202-193117
Status,Completed
Unauthorized_Changes_Found,No
Timestamp,20220202-194616
Status,Completed
Unauthorized_Changes_Found,No
Timestamp,20220202-200122
Status,Completed
Unauthorized_Changes_Found,No
Timestamp,20220202-201624
Status,Completed
Unauthorized_Changes_Found,No
Timestamp,20220202-203111
Status,Completed
Unauthorized_Changes_Found,No
Timestamp,20220202-204636
Status,Completed
Unauthorized_Changes_Found,No
Timestamp,20220202-210129
Status,Completed
Unauthorized_Changes_Found,No
Timestamp,20220202-211617
Status,Completed
Unauthorized_Changes_Found,No
Timestamp,20220202-213112
Status,Completed
Unauthorized_Changes_Found,No
Timestamp,20220202-214615
Status,Completed
Unauthorized_Changes_Found,No
Timestamp,20220202-220116
Status,Completed
Unauthorized_Changes_Found,No
Timestamp,20220202-221623
Status,Completed
Unauthorized_Changes_Found,No
Timestamp,20220202-223110
Status,Completed
Unauthorized_Changes_Found,No
Timestamp,20220202-224615
Status,Completed
Unauthorized_Changes_Found,No
Timestamp,20220202-230118
Status,Completed
Unauthorized_Changes_Found,No
Timestamp,20220202-231618
Status,Completed
Unauthorized_Changes_Found,No
Timestamp,20220202-233118
Status,Completed
Unauthorized_Changes_Found,No
Timestamp,20220202-234617
Status,Completed
Unauthorized_Changes_Found,No
Timestamp,20220203-000117
Status,Completed
Unauthorized_Changes_Found,No
Timestamp,20220203-001619
Status,Completed
Unauthorized_Changes_Found,No
Timestamp,20220203-003112
Status,Completed
Unauthorized_Changes_Found,No
Timestamp,20220203-004616
Status,Completed
Unauthorized_Changes_Found,No
Timestamp,20220203-010118
Status,Completed
Unauthorized_Changes_Found,No
Timestamp,20220203-011618
Status,Completed
Unauthorized_Changes_Found,No
Timestamp,20220203-013116
Status,Completed
Unauthorized_Changes_Found,No
Timestamp,20220203-014614
Status,Completed
Unauthorized_Changes_Found,No
Timestamp,20220203-020117
Status,Completed
Unauthorized_Changes_Found,No
Timestamp,20220203-021619
Status,Completed
Unauthorized_Changes_Found,No
Timestamp,20220203-023114
Status,Completed
Unauthorized_Changes_Found,No
Timestamp,20220203-024614
Status,Completed
Unauthorized_Changes_Found,No
Timestamp,20220203-030112
Status,Completed
Unauthorized_Changes_Found,No
Timestamp,20220203-031618
Status,Completed
Unauthorized_Changes_Found,No
Timestamp,20220203-033112
Status,Completed
Unauthorized_Changes_Found,No
Timestamp,20220203-034616
Status,Completed
Unauthorized_Changes_Found,No
Timestamp,20220203-040132
Status,Completed
Unauthorized_Changes_Found,No
Timestamp,20220203-041620
Status,Completed
Unauthorized_Changes_Found,No
Timestamp,20220203-043113
Status,Completed
Unauthorized_Changes_Found,No
Timestamp,20220203-044617
Status,Completed
Unauthorized_Changes_Found,No
Timestamp,20220203-050122
Status,Completed
Unauthorized_Changes_Found,No
Timestamp,20220203-051618
Status,Completed
Unauthorized_Changes_Found,No
Timestamp,20220203-053117
Status,Completed
Unauthorized_Changes_Found,No
Timestamp,20220203-054616
Status,Completed
Unauthorized_Changes_Found,No
Timestamp,20220203-060126
Status,Completed
Unauthorized_Changes_Found,No
Timestamp,20220203-061620
Status,Completed
Unauthorized_Changes_Found,No
Timestamp,20220203-063115
Status,Completed
Unauthorized_Changes_Found,No
Timestamp,20220203-064620
Status,Completed
Unauthorized_Changes_Found,No
Timestamp,20220203-070126
Status,Completed
Unauthorized_Changes_Found,No
Timestamp,20220203-071620
Status,Completed
Unauthorized_Changes_Found,No
Timestamp,20220203-073116
Status,Completed
Unauthorized_Changes_Found,No
Timestamp,20220203-074618
Status,Completed
Unauthorized_Changes_Found,No
Timestamp,20220203-080122
Status,Completed
Unauthorized_Changes_Found,No
Timestamp,20220203-081617
Status,Completed
Unauthorized_Changes_Found,No
Timestamp,20220203-083116
Status,Completed
Unauthorized_Changes_Found,No
Timestamp,20220203-084612
Status,Completed
Unauthorized_Changes_Found,No
Timestamp,20220203-090121
Status,Completed
Unauthorized_Changes_Found,No
Timestamp,20220203-091617
Status,Completed
Unauthorized_Changes_Found,No
Timestamp,20220203-093115
Status,Completed
Unauthorized_Changes_Found,No
Timestamp,20220203-094617
Status,Completed
Unauthorized_Changes_Found,No
Timestamp,20220203-100120
Status,Completed
Unauthorized_Changes_Found,No
Timestamp,20220203-101626
Status,Completed
Unauthorized_Changes_Found,No
Timestamp,20220203-103113
Status,Completed
Unauthorized_Changes_Found,No
Timestamp,20220203-104617
Status,Completed
Unauthorized_Changes_Found,No
Timestamp,20220203-110118
Status,Completed
Unauthorized_Changes_Found,No
Timestamp,20220203-111616
Status,Completed
Unauthorized_Changes_Found,No
Timestamp,20220203-113119
Status,Completed
Unauthorized_Changes_Found,No
Timestamp,20220203-114614
Status,Completed
Unauthorized_Changes_Found,No
Timestamp,20220203-120118
Status,Completed
Unauthorized_Changes_Found,No
Timestamp,20220203-121618
Status,Completed
Unauthorized_Changes_Found,No
Timestamp,20220203-123116
Status,Completed
Unauthorized_Changes_Found,No
Timestamp,20220203-124615
Status,Completed
Unauthorized_Changes_Found,No
Timestamp,20220203-130116
Status,Completed
Unauthorized_Changes_Found,No
Timestamp,20220203-131617
Status,Completed
Unauthorized_Changes_Found,No
Timestamp,20220203-133116
Status,Completed
Unauthorized_Changes_Found,No
Timestamp,20220203-134619
Status,Completed
Unauthorized_Changes_Found,No
Timestamp,20220203-140122
Status,Completed
Unauthorized_Changes_Found,No
Timestamp,20220203-141615
Status,Completed
Unauthorized_Changes_Found,No
Timestamp,20220203-143114
Status,Completed
Unauthorized_Changes_Found,No
Timestamp,20220203-144612
Status,Completed
Unauthorized_Changes_Found,No
Timestamp,20220203-150122
Status,Completed
Unauthorized_Changes_Found,No
Timestamp,20220203-151616
Status,Completed
Unauthorized_Changes_Found,No
Timestamp,20220203-153117
Status,Completed
Unauthorized_Changes_Found,No
Timestamp,20220203-154612
Status,Completed
Unauthorized_Changes_Found,No
Timestamp,20220203-160125
Status,Completed
Unauthorized_Changes_Found,No
Timestamp,20220203-161616
Status,Completed
Unauthorized_Changes_Found,No
Timestamp,20220203-163109
Status,Completed
Unauthorized_Changes_Found,No
Timestamp,20220203-164614
Status,Completed
Unauthorized_Changes_Found,No
Timestamp,20220203-170123
Status,Completed
Unauthorized_Changes_Found,No
Timestamp,20220203-171616
Status,Completed
Unauthorized_Changes_Found,No
Timestamp,20220203-173114
Status,Completed
Unauthorized_Changes_Found,No
Timestamp,20220203-174614
Status,Completed
Unauthorized_Changes_Found,No
Timestamp,20220203-180113
Status,Completed
Unauthorized_Changes_Found,No
Timestamp,20220203-181615
Status,Completed
Unauthorized_Changes_Found,No
Timestamp,20220203-183110
Status,Completed
Unauthorized_Changes_Found,No
Timestamp,20220203-184611
Status,Completed
Unauthorized_Changes_Found,No
Timestamp,20220203-190117
Status,Completed
Unauthorized_Changes_Found,No
Timestamp,20220203-191640
Status,Completed
Unauthorized_Changes_Found,No
Timestamp,20220203-193109
Status,Completed
Unauthorized_Changes_Found,No
Timestamp,20220203-194615
Status,Completed
Unauthorized_Changes_Found,No
Timestamp,20220203-200122
Status,Completed
Unauthorized_Changes_Found,No
Timestamp,20220203-201614
Status,Completed
Unauthorized_Changes_Found,No
Timestamp,20220203-203112
Status,Completed
Unauthorized_Changes_Found,No
Timestamp,20220203-204613
Status,Completed
Unauthorized_Changes_Found,No
Timestamp,20220203-210123
Status,Completed
Unauthorized_Changes_Found,No
Timestamp,20220203-211613
Status,Completed
Unauthorized_Changes_Found,No
Timestamp,20220203-213110
Status,Completed
Unauthorized_Changes_Found,No
Timestamp,20220203-214615
Status,Completed
Unauthorized_Changes_Found,No
Timestamp,20220203-220121
Status,Completed
Unauthorized_Changes_Found,No
Timestamp,20220203-221617
Status,Completed
Unauthorized_Changes_Found,No
Timestamp,20220203-223112
Status,Completed
Unauthorized_Changes_Found,No
Timestamp,20220203-224612
Status,Completed
Unauthorized_Changes_Found,No
Timestamp,20220203-230112
Status,Completed
Unauthorized_Changes_Found,No
Timestamp,20220203-231614
Status,Completed
Unauthorized_Changes_Found,No
Timestamp,20220203-233112
Status,Completed
Unauthorized_Changes_Found,No
Timestamp,20220203-234611
Status,Completed
Unauthorized_Changes_Found,No
Timestamp,20220204-000124
Status,Completed
Unauthorized_Changes_Found,No
Timestamp,20220204-001616
Status,Completed
Unauthorized_Changes_Found,No
Timestamp,20220204-003112
Status,Completed
Unauthorized_Changes_Found,No
Timestamp,20220204-004612
Status,Completed
Unauthorized_Changes_Found,No
Timestamp,20220204-010124
Status,Completed
Unauthorized_Changes_Found,No
Timestamp,20220204-011614
Status,Completed
Unauthorized_Changes_Found,No
Timestamp,20220204-013112
Status,Completed
Unauthorized_Changes_Found,No
Timestamp,20220204-014614
Status,Completed
Unauthorized_Changes_Found,No
Timestamp,20220204-020113
Status,Completed
Unauthorized_Changes_Found,No
Timestamp,20220204-021613
Status,Completed
Unauthorized_Changes_Found,No
Timestamp,20220204-023111
Status,Completed
Unauthorized_Changes_Found,No
Timestamp,20220204-024612
Status,Completed
Unauthorized_Changes_Found,No
Timestamp,20220204-030113
Status,Completed
Unauthorized_Changes_Found,No
Timestamp,20220204-031612
Status,Completed
Unauthorized_Changes_Found,No
Timestamp,20220204-033111
Status,Completed
Unauthorized_Changes_Found,No
Timestamp,20220204-034615
Status,Completed
Unauthorized_Changes_Found,No
Timestamp,20220204-040127
Status,Completed
Unauthorized_Changes_Found,No
Timestamp,20220204-041617
Status,Completed
Unauthorized_Changes_Found,No
Timestamp,20220204-043119
Status,Completed
Unauthorized_Changes_Found,No
Timestamp,20220204-044615
Status,Completed
Unauthorized_Changes_Found,No
Timestamp,20220204-050125
Status,Completed
Unauthorized_Changes_Found,No
Timestamp,20220204-051614
Status,Completed
Unauthorized_Changes_Found,No
Timestamp,20220204-053115
Status,Completed
Unauthorized_Changes_Found,No
Timestamp,20220204-054616
Status,Completed
Unauthorized_Changes_Found,No
Timestamp,20220204-060124
Status,Completed
Unauthorized_Changes_Found,No
Timestamp,20220204-061618
Status,Completed
Unauthorized_Changes_Found,No
Timestamp,20220204-063114
Status,Completed
Unauthorized_Changes_Found,No
Timestamp,20220204-064612
Status,Completed
Unauthorized_Changes_Found,No
Timestamp,20220204-070130
Status,Completed
Unauthorized_Changes_Found,No
Timestamp,20220204-071617
Status,Completed
Unauthorized_Changes_Found,No
Timestamp,20220204-073110
Status,Completed
Unauthorized_Changes_Found,No
Timestamp,20220204-074612
Status,Completed
Unauthorized_Changes_Found,No
Timestamp,20220204-080126
Status,Completed
Unauthorized_Changes_Found,No
Timestamp,20220204-081627
Status,Completed
Unauthorized_Changes_Found,No
Timestamp,20220204-083115
Status,Completed
Unauthorized_Changes_Found,No
Timestamp,20220204-084611
Status,Completed
Unauthorized_Changes_Found,No
Timestamp,20220204-090110
Status,Completed
Unauthorized_Changes_Found,No
Timestamp,20220204-091612
Status,Completed
Unauthorized_Changes_Found,No
Timestamp,20220204-093112
Status,Completed
Unauthorized_Changes_Found,No
Timestamp,20220204-094613
Status,Completed
Unauthorized_Changes_Found,No
Timestamp,20220204-100112
Status,Completed
Unauthorized_Changes_Found,No
Timestamp,20220204-101614
Status,Completed
Unauthorized_Changes_Found,No
Timestamp,20220204-103112
Status,Completed
Unauthorized_Changes_Found,No
Timestamp,20220204-104614
Status,Completed
Unauthorized_Changes_Found,No
Timestamp,20220204-110111
Status,Completed
Unauthorized_Changes_Found,No
Timestamp,20220204-111618
Status,Completed
Unauthorized_Changes_Found,No
Timestamp,20220204-113109
Status,Completed
Unauthorized_Changes_Found,No
Timestamp,20220204-114613
Status,Completed
Unauthorized_Changes_Found,No
Timestamp,20220204-120115
Status,Completed
Unauthorized_Changes_Found,No
Timestamp,20220204-121612
Status,Completed
Unauthorized_Changes_Found,No
Timestamp,20220204-123113
Status,Completed
Unauthorized_Changes_Found,No
Timestamp,20220204-124611
Status,Completed
Unauthorized_Changes_Found,No
Timestamp,20220204-130122
Status,Completed
Unauthorized_Changes_Found,No
Timestamp,20220204-131615
Status,Completed
Unauthorized_Changes_Found,No
Timestamp,20220204-133113
Status,Completed
Unauthorized_Changes_Found,No
Timestamp,20220204-134615
Status,Completed
Unauthorized_Changes_Found,No
Timestamp,20220204-140129
Status,Completed
Unauthorized_Changes_Found,No
Timestamp,20220204-141613
Status,Completed
Unauthorized_Changes_Found,No
Timestamp,20220204-143111
Status,Completed
Unauthorized_Changes_Found,No
Timestamp,20220204-144635
Status,Completed
Unauthorized_Changes_Found,No
Timestamp,20220204-150122
Status,Completed
Unauthorized_Changes_Found,No
Timestamp,20220204-151614
Status,Completed
Unauthorized_Changes_Found,No
Timestamp,20220204-153109
Status,Completed
Unauthorized_Changes_Found,No
Timestamp,20220204-154613
Status,Completed
Unauthorized_Changes_Found,No
Timestamp,20220204-160118
Status,Completed
Unauthorized_Changes_Found,No
Timestamp,20220204-161617
Status,Completed
Unauthorized_Changes_Found,No
Timestamp,20220204-163112
Status,Completed
Unauthorized_Changes_Found,No
Timestamp,20220204-164616
Status,Completed
Unauthorized_Changes_Found,No
Timestamp,20220204-170118
Status,Completed
Unauthorized_Changes_Found,No
Timestamp,20220204-171619
Status,Completed
Unauthorized_Changes_Found,No
Timestamp,20220204-173109
Status,Completed
Unauthorized_Changes_Found,No
Timestamp,20220204-174613
Status,Completed
Unauthorized_Changes_Found,No
Timestamp,20220204-180111
Status,Completed
Unauthorized_Changes_Found,No
Timestamp,20220204-181633
Status,Completed
Unauthorized_Changes_Found,No
Timestamp,20220204-183113
Status,Completed
Unauthorized_Changes_Found,No
Timestamp,20220204-184614
Status,Completed
Unauthorized_Changes_Found,No
Timestamp,20220204-190121
Status,Completed
Unauthorized_Changes_Found,No
Timestamp,20220204-191641
Status,Completed
Unauthorized_Changes_Found,No
Timestamp,20220204-193112
Status,Completed
Unauthorized_Changes_Found,No
Timestamp,20220204-194615
Status,Completed
Unauthorized_Changes_Found,No
Timestamp,20220204-200125
Status,Completed
Unauthorized_Changes_Found,No
Timestamp,20220204-201613
Status,Completed
Unauthorized_Changes_Found,No
Timestamp,20220204-203111
Status,Completed
Unauthorized_Changes_Found,No
Timestamp,20220204-204613
Status,Completed
Unauthorized_Changes_Found,No
Timestamp,20220204-210122
Status,Completed
Unauthorized_Changes_Found,No
Timestamp,20220204-211614
Status,Completed
Unauthorized_Changes_Found,No
Timestamp,20220204-213112
Status,Completed
Unauthorized_Changes_Found,No
Timestamp,20220204-214615
Status,Completed
Unauthorized_Changes_Found,No
Timestamp,20220204-220112
Status,Completed
Unauthorized_Changes_Found,No
Timestamp,20220204-221616
Status,Completed
Unauthorized_Changes_Found,No
Timestamp,20220204-223111
Status,Completed
Unauthorized_Changes_Found,No
Timestamp,20220204-224615
Status,Completed
Unauthorized_Changes_Found,No
Timestamp,20220204-230112
Status,Completed
Unauthorized_Changes_Found,No
Timestamp,20220204-231615
Status,Completed
Unauthorized_Changes_Found,No
Timestamp,20220204-233115
Status,Completed
Unauthorized_Changes_Found,No
Timestamp,20220204-234613
Status,Completed
Unauthorized_Changes_Found,No
Timestamp,20220205-000123
Status,Completed
Unauthorized_Changes_Found,No
Timestamp,20220205-001615
Status,Completed
Unauthorized_Changes_Found,No
Timestamp,20220205-003111
Status,Completed
Unauthorized_Changes_Found,No
Timestamp,20220205-004614
Status,Completed
Unauthorized_Changes_Found,No
Timestamp,20220205-010119
Status,Completed
Unauthorized_Changes_Found,No
Timestamp,20220205-011617
Status,Completed
Unauthorized_Changes_Found,No
Timestamp,20220205-013112
Status,Completed
Unauthorized_Changes_Found,No
Timestamp,20220205-014616
Status,Completed
Unauthorized_Changes_Found,No
Timestamp,20220205-020114
Status,Completed
Unauthorized_Changes_Found,No
Timestamp,20220205-021614
Status,Completed
Unauthorized_Changes_Found,No
Timestamp,20220205-023111
Status,Completed
Unauthorized_Changes_Found,No
Timestamp,20220205-024615
Status,Completed
Unauthorized_Changes_Found,No
Timestamp,20220205-030113
Status,Completed
Unauthorized_Changes_Found,No
Timestamp,20220205-031615
Status,Completed
Unauthorized_Changes_Found,No
Timestamp,20220205-033113
Status,Completed
Unauthorized_Changes_Found,No
Timestamp,20220205-034615
Status,Completed
Unauthorized_Changes_Found,No
Timestamp,20220205-040130
Status,Completed
Unauthorized_Changes_Found,No
Timestamp,20220205-041625
Status,Completed
Unauthorized_Changes_Found,No
Timestamp,20220205-043111
Status,Completed
Unauthorized_Changes_Found,No
Timestamp,20220205-044612
Status,Completed
Unauthorized_Changes_Found,No
Timestamp,20220205-050126
Status,Completed
Unauthorized_Changes_Found,No
Timestamp,20220205-051617
Status,Completed
Unauthorized_Changes_Found,No
Timestamp,20220205-053112
Status,Completed
Unauthorized_Changes_Found,No
Timestamp,20220205-054613
Status,Completed
Unauthorized_Changes_Found,No
Timestamp,20220205-060123
Status,Completed
Unauthorized_Changes_Found,No
Timestamp,20220205-061613
Status,Completed
Unauthorized_Changes_Found,No
Timestamp,20220205-063113
Status,Completed
Unauthorized_Changes_Found,No
Timestamp,20220205-064610
Status,Completed
Unauthorized_Changes_Found,No
Timestamp,20220205-070120
Status,Completed
Unauthorized_Changes_Found,No
Timestamp,20220205-071615
Status,Completed
Unauthorized_Changes_Found,No
Timestamp,20220205-073116
Status,Completed
Unauthorized_Changes_Found,No
Timestamp,20220205-074616
Status,Completed
Unauthorized_Changes_Found,No
Timestamp,20220205-080109
Status,Completed
Unauthorized_Changes_Found,No
Timestamp,20220205-081617
Status,Completed
Unauthorized_Changes_Found,No
Timestamp,20220205-083112
Status,Completed
Unauthorized_Changes_Found,No
Timestamp,20220205-084617
Status,Completed
Unauthorized_Changes_Found,No
Timestamp,20220205-090113
Status,Completed
Unauthorized_Changes_Found,No
Timestamp,20220205-091619
Status,Completed
Unauthorized_Changes_Found,No
Timestamp,20220205-093114
Status,Completed
Unauthorized_Changes_Found,No
Timestamp,20220205-094613
Status,Completed
Unauthorized_Changes_Found,No
Timestamp,20220205-100120
Status,Completed
Unauthorized_Changes_Found,No
Timestamp,20220205-101619
Status,Completed
Unauthorized_Changes_Found,No
Timestamp,20220205-103114
Status,Completed
Unauthorized_Changes_Found,No
Timestamp,20220205-104613
Status,Completed
Unauthorized_Changes_Found,No
Timestamp,20220205-110125
Status,Completed
Unauthorized_Changes_Found,No
Timestamp,20220205-111619
Status,Completed
Unauthorized_Changes_Found,No
Timestamp,20220205-113117
Status,Completed
Unauthorized_Changes_Found,No
Timestamp,20220205-114620
Status,Completed
Unauthorized_Changes_Found,No
Timestamp,20220205-120115
Status,Completed
Unauthorized_Changes_Found,No
Timestamp,20220205-121617
Status,Completed
Unauthorized_Changes_Found,No
Timestamp,20220205-123111
Status,Completed
Unauthorized_Changes_Found,No
Timestamp,20220205-124614
Status,Completed
Unauthorized_Changes_Found,No
Timestamp,20220205-130116
Status,Completed
Unauthorized_Changes_Found,No
Timestamp,20220205-131615
Status,Completed
Unauthorized_Changes_Found,No
Timestamp,20220205-133111
Status,Completed
Unauthorized_Changes_Found,No
Timestamp,20220205-134617
Status,Completed
Unauthorized_Changes_Found,No
Timestamp,20220205-140116
Status,Completed
Unauthorized_Changes_Found,No
Timestamp,20220205-141614
Status,Completed
Unauthorized_Changes_Found,No
Timestamp,20220205-143110
Status,Completed
Unauthorized_Changes_Found,No
Timestamp,20220205-144613
Status,Completed
Unauthorized_Changes_Found,No
Timestamp,20220205-150114
Status,Completed
Unauthorized_Changes_Found,No
Timestamp,20220205-151616
Status,Completed
Unauthorized_Changes_Found,No
Timestamp,20220205-153114
Status,Completed
Unauthorized_Changes_Found,No
Timestamp,20220205-154616
Status,Completed
Unauthorized_Changes_Found,No
Timestamp,20220205-160117
Status,Completed
Unauthorized_Changes_Found,No
Timestamp,20220205-161617
Status,Completed
Unauthorized_Changes_Found,No
Timestamp,20220205-163113
Status,Completed
Unauthorized_Changes_Found,No
Timestamp,20220205-164616
Status,Completed
Unauthorized_Changes_Found,No
Timestamp,20220205-170119
Status,Completed
Unauthorized_Changes_Found,No
Timestamp,20220205-171614
Status,Completed
Unauthorized_Changes_Found,No
Timestamp,20220205-173111
Status,Completed
Unauthorized_Changes_Found,No
Timestamp,20220205-174616
Status,Completed
Unauthorized_Changes_Found,No
Timestamp,20220205-180122
Status,Completed
Unauthorized_Changes_Found,No
Timestamp,20220205-181615
Status,Completed
Unauthorized_Changes_Found,No
Timestamp,20220205-183115
Status,Completed
Unauthorized_Changes_Found,No
Timestamp,20220205-184612
Status,Completed
Unauthorized_Changes_Found,No
Timestamp,20220205-190112
Status,Completed
Unauthorized_Changes_Found,No
Timestamp,20220205-191616
Status,Completed
Unauthorized_Changes_Found,No
Timestamp,20220205-193115
Status,Completed
Unauthorized_Changes_Found,No
Timestamp,20220205-194615
Status,Completed
Unauthorized_Changes_Found,No
Timestamp,20220205-200120
Status,Completed
Unauthorized_Changes_Found,No
Timestamp,20220205-201614
Status,Completed
Unauthorized_Changes_Found,No
Timestamp,20220205-203112
Status,Completed
Unauthorized_Changes_Found,No
Timestamp,20220205-204615
Status,Completed
Unauthorized_Changes_Found,No
Timestamp,20220205-210109
Status,Completed
Unauthorized_Changes_Found,No
Timestamp,20220205-211611
Status,Completed
Unauthorized_Changes_Found,No
Timestamp,20220205-213112
Status,Completed
Unauthorized_Changes_Found,No
Timestamp,20220205-214611
Status,Completed
Unauthorized_Changes_Found,No
Timestamp,20220205-220120
Status,Completed
Unauthorized_Changes_Found,No
Timestamp,20220205-221613
Status,Completed
Unauthorized_Changes_Found,No
Timestamp,20220205-223113
Status,Completed
Unauthorized_Changes_Found,No
Timestamp,20220205-224615
Status,Completed
Unauthorized_Changes_Found,No
Timestamp,20220205-230122
Status,Completed
Unauthorized_Changes_Found,No
Timestamp,20220205-231618
Status,Completed
Unauthorized_Changes_Found,No
Timestamp,20220205-233112
Status,Completed
Unauthorized_Changes_Found,No
Timestamp,20220205-234612
Status,Completed
Unauthorized_Changes_Found,No
Timestamp,20220206-000124
Status,Completed
Unauthorized_Changes_Found,No
Timestamp,20220206-001614
Status,Completed
Unauthorized_Changes_Found,No
Timestamp,20220206-003115
Status,Completed
Unauthorized_Changes_Found,No
Timestamp,20220206-004615
Status,Completed
Unauthorized_Changes_Found,No
Timestamp,20220206-010118
Status,Completed
Unauthorized_Changes_Found,No
Timestamp,20220206-011613
Status,Completed
Unauthorized_Changes_Found,No
Timestamp,20220206-013108
Status,Completed
Unauthorized_Changes_Found,No
Timestamp,20220206-014612
Status,Completed
Unauthorized_Changes_Found,No
Timestamp,20220206-020118
Status,Completed
Unauthorized_Changes_Found,No
Timestamp,20220206-021617
Status,Completed
Unauthorized_Changes_Found,No
Timestamp,20220206-023110
Status,Completed
Unauthorized_Changes_Found,No
Timestamp,20220206-024611
Status,Completed
Unauthorized_Changes_Found,No
Timestamp,20220206-030112
Status,Completed
Unauthorized_Changes_Found,No
Timestamp,20220206-031617
Status,Completed
Unauthorized_Changes_Found,No
Timestamp,20220206-033116
Status,Completed
Unauthorized_Changes_Found,No
Timestamp,20220206-034615
Status,Completed
Unauthorized_Changes_Found,No
Timestamp,20220206-040125
Status,Completed
Unauthorized_Changes_Found,No
Timestamp,20220206-041616
Status,Completed
Unauthorized_Changes_Found,No
Timestamp,20220206-043110
Status,Completed
Unauthorized_Changes_Found,No
Timestamp,20220206-044614
Status,Completed
Unauthorized_Changes_Found,No
Timestamp,20220206-050118
Status,Completed
Unauthorized_Changes_Found,No
Timestamp,20220206-051615
Status,Completed
Unauthorized_Changes_Found,No
Timestamp,20220206-053112
Status,Completed
Unauthorized_Changes_Found,No
Timestamp,20220206-054616
Status,Completed
Unauthorized_Changes_Found,No
Timestamp,20220206-060121
Status,Completed
Unauthorized_Changes_Found,No
Timestamp,20220206-061615
Status,Completed
Unauthorized_Changes_Found,No
Timestamp,20220206-063109
Status,Completed
Unauthorized_Changes_Found,No
Timestamp,20220206-064612
Status,Completed
Unauthorized_Changes_Found,No
Timestamp,20220206-070126
Status,Completed
Unauthorized_Changes_Found,No
Timestamp,20220206-071616
Status,Completed
Unauthorized_Changes_Found,No
Timestamp,20220206-073109
Status,Completed
Unauthorized_Changes_Found,No
Timestamp,20220206-074613
Status,Completed
Unauthorized_Changes_Found,No
Timestamp,20220206-080112
Status,Completed
Unauthorized_Changes_Found,No
Timestamp,20220206-081616
Status,Completed
Unauthorized_Changes_Found,No
Timestamp,20220206-083111
Status,Completed
Unauthorized_Changes_Found,No
Timestamp,20220206-084615
Status,Completed
Unauthorized_Changes_Found,No
Timestamp,20220206-090113
Status,Completed
Unauthorized_Changes_Found,No
Timestamp,20220206-091615
Status,Completed
Unauthorized_Changes_Found,No
Timestamp,20220206-093111
Status,Completed
Unauthorized_Changes_Found,No
Timestamp,20220206-094613
Status,Completed
Unauthorized_Changes_Found,No
Timestamp,20220206-100123
Status,Completed
Unauthorized_Changes_Found,No
Timestamp,20220206-101619
Status,Completed
Unauthorized_Changes_Found,No
Timestamp,20220206-103115
Status,Completed
Unauthorized_Changes_Found,No
Timestamp,20220206-104613
Status,Completed
Unauthorized_Changes_Found,No
Timestamp,20220206-110112
Status,Completed
Unauthorized_Changes_Found,No
Timestamp,20220206-111616
Status,Completed
Unauthorized_Changes_Found,No
Timestamp,20220206-113113
Status,Completed
Unauthorized_Changes_Found,No
Timestamp,20220206-114614
Status,Completed
Unauthorized_Changes_Found,No
Timestamp,20220206-120115
Status,Completed
Unauthorized_Changes_Found,No
Timestamp,20220206-121613
Status,Completed
Unauthorized_Changes_Found,No
Timestamp,20220206-123117
Status,Completed
Unauthorized_Changes_Found,No
Timestamp,20220206-124615
Status,Completed
Unauthorized_Changes_Found,No
Timestamp,20220206-130111
Status,Completed
Unauthorized_Changes_Found,No
Timestamp,20220206-131613
Status,Completed
Unauthorized_Changes_Found,No
Timestamp,20220206-133112
Status,Completed
Unauthorized_Changes_Found,No
Timestamp,20220206-134613
Status,Completed
Unauthorized_Changes_Found,No
Timestamp,20220206-140115
Status,Completed
Unauthorized_Changes_Found,No
Timestamp,20220206-141615
Status,Completed
Unauthorized_Changes_Found,No
Timestamp,20220206-143115
Status,Completed
Unauthorized_Changes_Found,No
Timestamp,20220206-144615
Status,Completed
Unauthorized_Changes_Found,No
Timestamp,20220206-150120
Status,Completed
Unauthorized_Changes_Found,No
Timestamp,20220206-151620
Status,Completed
Unauthorized_Changes_Found,No
Timestamp,20220206-153112
Status,Completed
Unauthorized_Changes_Found,No
Timestamp,20220206-154615
Status,Completed
Unauthorized_Changes_Found,No
Timestamp,20220206-160116
Status,Completed
Unauthorized_Changes_Found,No
Timestamp,20220206-161618
Status,Completed
Unauthorized_Changes_Found,No
Timestamp,20220206-163114
Status,Completed
Unauthorized_Changes_Found,No
Timestamp,20220206-164616
Status,Completed
Unauthorized_Changes_Found,No
Timestamp,20220206-170113
Status,Completed
Unauthorized_Changes_Found,No
Timestamp,20220206-171734
Status,Completed
Unauthorized_Changes_Found,No
Timestamp,20220206-173115
Status,Completed
Unauthorized_Changes_Found,No
Timestamp,20220206-174613
Status,Completed
Unauthorized_Changes_Found,No
Timestamp,20220206-180118
Status,Completed
Unauthorized_Changes_Found,No
Timestamp,20220206-181619
Status,Completed
Unauthorized_Changes_Found,No
Timestamp,20220206-183112
Status,Completed
Unauthorized_Changes_Found,No
Timestamp,20220206-184612
Status,Completed
Unauthorized_Changes_Found,No
Timestamp,20220206-190115
Status,Completed
Unauthorized_Changes_Found,No
Timestamp,20220206-191612
Status,Completed
Unauthorized_Changes_Found,No
Timestamp,20220206-193113
Status,Completed
Unauthorized_Changes_Found,No
Timestamp,20220206-194615
Status,Completed
Unauthorized_Changes_Found,No
Timestamp,20220206-200118
Status,Completed
Unauthorized_Changes_Found,No
Timestamp,20220206-201619
Status,Completed
Unauthorized_Changes_Found,No
Timestamp,20220206-203113
Status,Completed
Unauthorized_Changes_Found,No
Timestamp,20220206-204617
Status,Completed
Unauthorized_Changes_Found,No
Timestamp,20220206-210120
Status,Completed
Unauthorized_Changes_Found,No
Timestamp,20220206-211612
Status,Completed
Unauthorized_Changes_Found,No
Timestamp,20220206-213113
Status,Completed
Unauthorized_Changes_Found,No
Timestamp,20220206-214616
Status,Completed
Unauthorized_Changes_Found,No
Timestamp,20220206-220114
Status,Completed
Unauthorized_Changes_Found,No
Timestamp,20220206-221616
Status,Completed
Unauthorized_Changes_Found,No
Timestamp,20220206-223113
Status,Completed
Unauthorized_Changes_Found,No
Timestamp,20220206-224614
Status,Completed
Unauthorized_Changes_Found,No
Timestamp,20220206-230109
Status,Completed
Unauthorized_Changes_Found,No
Timestamp,20220206-231613
Status,Completed
Unauthorized_Changes_Found,No
Timestamp,20220206-233109
Status,Completed
Unauthorized_Changes_Found,No
Timestamp,20220206-234613
Status,Completed
Unauthorized_Changes_Found,No
Timestamp,20220207-000126
Status,Completed
Unauthorized_Changes_Found,No
Timestamp,20220207-001612
Status,Completed
Unauthorized_Changes_Found,No
Timestamp,20220207-003108
Status,Completed
Unauthorized_Changes_Found,No
Timestamp,20220207-004614
Status,Completed
Unauthorized_Changes_Found,No
Timestamp,20220207-010115
Status,Completed
Unauthorized_Changes_Found,No
Timestamp,20220207-011615
Status,Completed
Unauthorized_Changes_Found,No
Timestamp,20220207-013112
Status,Completed
Unauthorized_Changes_Found,No
Timestamp,20220207-014614
Status,Completed
Unauthorized_Changes_Found,No
Timestamp,20220207-020116
Status,Completed
Unauthorized_Changes_Found,No
Timestamp,20220207-021616
Status,Completed
Unauthorized_Changes_Found,No
Timestamp,20220207-023112
Status,Completed
Unauthorized_Changes_Found,No
Timestamp,20220207-024612
Status,Completed
Unauthorized_Changes_Found,No
Timestamp,20220207-030108
Status,Completed
Unauthorized_Changes_Found,No
Timestamp,20220207-031615
Status,Completed
Unauthorized_Changes_Found,No
Timestamp,20220207-033114
Status,Completed
Unauthorized_Changes_Found,No
Timestamp,20220207-034614
Status,Completed
Unauthorized_Changes_Found,No
Timestamp,20220207-040120
Status,Completed
Unauthorized_Changes_Found,No
Timestamp,20220207-041614
Status,Completed
Unauthorized_Changes_Found,No
Timestamp,20220207-043117
Status,Completed
Unauthorized_Changes_Found,No
Timestamp,20220207-044612
Status,Completed
Unauthorized_Changes_Found,No
Timestamp,20220207-050115
Status,Completed
Unauthorized_Changes_Found,No
Timestamp,20220207-051616
Status,Completed
Unauthorized_Changes_Found,No
Timestamp,20220207-053109
Status,Completed
Unauthorized_Changes_Found,No
Timestamp,20220207-054612
Status,Completed
Unauthorized_Changes_Found,No
Timestamp,20220207-060111
Status,Completed
Unauthorized_Changes_Found,No
Timestamp,20220207-061613
Status,Completed
Unauthorized_Changes_Found,No
Timestamp,20220207-063112
Status,Completed
Unauthorized_Changes_Found,No
Timestamp,20220207-064614
Status,Completed
Unauthorized_Changes_Found,No
Timestamp,20220207-070118
Status,Completed
Unauthorized_Changes_Found,No
Timestamp,20220207-071616
Status,Completed
Unauthorized_Changes_Found,No
Timestamp,20220207-073112
Status,Completed
Unauthorized_Changes_Found,No
Timestamp,20220207-074620
Status,Completed
Unauthorized_Changes_Found,No
Timestamp,20220207-080117
Status,Completed
Unauthorized_Changes_Found,No
Timestamp,20220207-081614
Status,Completed
Unauthorized_Changes_Found,No
Timestamp,20220207-083114
Status,Completed
Unauthorized_Changes_Found,No
Timestamp,20220207-084616
Status,Completed
Unauthorized_Changes_Found,No
Timestamp,20220207-090109
Status,Completed
Unauthorized_Changes_Found,No
Timestamp,20220207-091618
Status,Completed
Unauthorized_Changes_Found,No
Timestamp,20220207-093109
Status,Completed
Unauthorized_Changes_Found,No
Timestamp,20220207-094612
Status,Completed
Unauthorized_Changes_Found,No
Timestamp,20220207-100118
Status,Completed
Unauthorized_Changes_Found,No
Timestamp,20220207-101621
Status,Completed
Unauthorized_Changes_Found,No
Timestamp,20220207-103115
Status,Completed
Unauthorized_Changes_Found,No
Timestamp,20220207-104616
Status,Completed
Unauthorized_Changes_Found,No
Timestamp,20220207-110119
Status,Completed
Unauthorized_Changes_Found,No
Timestamp,20220207-111615
Status,Completed
Unauthorized_Changes_Found,No
Timestamp,20220207-113116
Status,Completed
Unauthorized_Changes_Found,No
Timestamp,20220207-114614
Status,Completed
Unauthorized_Changes_Found,No
Timestamp,20220207-120115
Status,Completed
Unauthorized_Changes_Found,No
Timestamp,20220207-121616
Status,Completed
Unauthorized_Changes_Found,No
Timestamp,20220207-123118
Status,Completed
Unauthorized_Changes_Found,No
Timestamp,20220207-124612
Status,Completed
Unauthorized_Changes_Found,No
Timestamp,20220207-130116
Status,Completed
Unauthorized_Changes_Found,No
Timestamp,20220207-131616
Status,Completed
Unauthorized_Changes_Found,No
Timestamp,20220207-133115
Status,Completed
Unauthorized_Changes_Found,No
Timestamp,20220207-134617
Status,Completed
Unauthorized_Changes_Found,No
Timestamp,20220207-140116
Status,Completed
Unauthorized_Changes_Found,No
Timestamp,20220207-141616
Status,Completed
Unauthorized_Changes_Found,No
Timestamp,20220207-143110
Status,Completed
Unauthorized_Changes_Found,No
Timestamp,20220207-144612
Status,Completed
Unauthorized_Changes_Found,No
Timestamp,20220207-150123
Status,Completed
Unauthorized_Changes_Found,No
Timestamp,20220207-151615
Status,Completed
Unauthorized_Changes_Found,No
Timestamp,20220207-153115
Status,Completed
Unauthorized_Changes_Found,No
Timestamp,20220207-154611
Status,Completed
Unauthorized_Changes_Found,No
Timestamp,20220207-160121
Status,Completed
Unauthorized_Changes_Found,No
Timestamp,20220207-161616
Status,Completed
Unauthorized_Changes_Found,No
Timestamp,20220207-163111
Status,Completed
Unauthorized_Changes_Found,No
Timestamp,20220207-164617
Status,Completed
Unauthorized_Changes_Found,No
Timestamp,20220207-170123
Status,Completed
Unauthorized_Changes_Found,No
Timestamp,20220207-171621
Status,Completed
Unauthorized_Changes_Found,No
Timestamp,20220207-173115
Status,Completed
Unauthorized_Changes_Found,No
Timestamp,20220207-174618
Status,Completed
Unauthorized_Changes_Found,No
Timestamp,20220207-180117
Status,Completed
Unauthorized_Changes_Found,No
Timestamp,20220207-181616
Status,Completed
Unauthorized_Changes_Found,No
Timestamp,20220207-183113
Status,Completed
Unauthorized_Changes_Found,No
Timestamp,20220207-184614
Status,Completed
Unauthorized_Changes_Found,No
Timestamp,20220207-190118
Status,Completed
Unauthorized_Changes_Found,No
Timestamp,20220207-191615
Status,Completed
Unauthorized_Changes_Found,No
Timestamp,20220207-193113
Status,Completed
Unauthorized_Changes_Found,No
Timestamp,20220207-194615
Status,Completed
Unauthorized_Changes_Found,No
Timestamp,20220207-200115
Status,Completed
Unauthorized_Changes_Found,No
Timestamp,20220207-201615
Status,Completed
Unauthorized_Changes_Found,No
Timestamp,20220207-203115
Status,Completed
Unauthorized_Changes_Found,No
Timestamp,20220207-204612
Status,Completed
Unauthorized_Changes_Found,No
Timestamp,20220207-210122
Status,Completed
Unauthorized_Changes_Found,No
Timestamp,20220207-211616
Status,Completed
Unauthorized_Changes_Found,No
Timestamp,20220207-213116
Status,Completed
Unauthorized_Changes_Found,No
Timestamp,20220207-214610
Status,Completed
Unauthorized_Changes_Found,No
Timestamp,20220207-220115
Status,Completed
Unauthorized_Changes_Found,No
Timestamp,20220207-221616
Status,Completed
Unauthorized_Changes_Found,No
Timestamp,20220207-223113
Status,Completed
Unauthorized_Changes_Found,No
Timestamp,20220207-224618
Status,Completed
Unauthorized_Changes_Found,No
Timestamp,20220207-230113
Status,Completed
Unauthorized_Changes_Found,No
Timestamp,20220207-231620
Status,Completed
Unauthorized_Changes_Found,No
Timestamp,20220207-233112
Status,Completed
Unauthorized_Changes_Found,No
Timestamp,20220207-234613
Status,Completed
Unauthorized_Changes_Found,No
Timestamp,20220208-000123
Status,Completed
Unauthorized_Changes_Found,No
Timestamp,20220208-001620
Status,Completed
Unauthorized_Changes_Found,No
Timestamp,20220208-003112
Status,Completed
Unauthorized_Changes_Found,No
Timestamp,20220208-004614
Status,Completed
Unauthorized_Changes_Found,No
Timestamp,20220208-010124
Status,Completed
Unauthorized_Changes_Found,No
Timestamp,20220208-011619
Status,Completed
Unauthorized_Changes_Found,No
Timestamp,20220208-013115
Status,Completed
Unauthorized_Changes_Found,No
Timestamp,20220208-014614
Status,Completed
Unauthorized_Changes_Found,No
Timestamp,20220208-020115
Status,Completed
Unauthorized_Changes_Found,No
Timestamp,20220208-021613
Status,Completed
Unauthorized_Changes_Found,No
Timestamp,20220208-023116
Status,Completed
Unauthorized_Changes_Found,No
Timestamp,20220208-024612
Status,Completed
Unauthorized_Changes_Found,No
Timestamp,20220208-030114
Status,Completed
Unauthorized_Changes_Found,No
Timestamp,20220208-031616
Status,Completed
Unauthorized_Changes_Found,No
Timestamp,20220208-033114
Status,Completed
Unauthorized_Changes_Found,No
Timestamp,20220208-034613
Status,Completed
Unauthorized_Changes_Found,No
Timestamp,20220208-040134
Status,Completed
Unauthorized_Changes_Found,No
Timestamp,20220208-041616
Status,Completed
Unauthorized_Changes_Found,No
Timestamp,20220208-043115
Status,Completed
Unauthorized_Changes_Found,No
Timestamp,20220208-044613
Status,Completed
Unauthorized_Changes_Found,No
Timestamp,20220208-050112
Status,Completed
Unauthorized_Changes_Found,No
Timestamp,20220208-051614
Status,Completed
Unauthorized_Changes_Found,No
Timestamp,20220208-053112
Status,Completed
Unauthorized_Changes_Found,No
Timestamp,20220208-054612
Status,Completed
Unauthorized_Changes_Found,No
Timestamp,20220208-060127
Status,Completed
Unauthorized_Changes_Found,No
Timestamp,20220208-061621
Status,Completed
Unauthorized_Changes_Found,No
Timestamp,20220208-063113
Status,Completed
Unauthorized_Changes_Found,No
Timestamp,20220208-064618
Status,Completed
Unauthorized_Changes_Found,No
Timestamp,20220208-070119
Status,Completed
Unauthorized_Changes_Found,No
Timestamp,20220208-071619
Status,Completed
Unauthorized_Changes_Found,No
Timestamp,20220208-073115
Status,Completed
Unauthorized_Changes_Found,No
Timestamp,20220208-074618
Status,Completed
Unauthorized_Changes_Found,No
Timestamp,20220208-080131
Status,Completed
Unauthorized_Changes_Found,No
Timestamp,20220208-081615
Status,Completed
Unauthorized_Changes_Found,No
Timestamp,20220208-083118
Status,Completed
Unauthorized_Changes_Found,No
Timestamp,20220208-084618
Status,Completed
Unauthorized_Changes_Found,No
Timestamp,20220208-090127
Status,Completed
Unauthorized_Changes_Found,No
Timestamp,20220208-091618
Status,Completed
Unauthorized_Changes_Found,No
Timestamp,20220208-093115
Status,Completed
Unauthorized_Changes_Found,No
Timestamp,20220208-094617
Status,Completed
Unauthorized_Changes_Found,No
Timestamp,20220208-100117
Status,Completed
Unauthorized_Changes_Found,No
Timestamp,20220208-101615
Status,Completed
Unauthorized_Changes_Found,No
Timestamp,20220208-103113
Status,Completed
Unauthorized_Changes_Found,No
Timestamp,20220208-104617
Status,Completed
Unauthorized_Changes_Found,No
Timestamp,20220208-110114
Status,Completed
Unauthorized_Changes_Found,No
Timestamp,20220208-111622
Status,Completed
Unauthorized_Changes_Found,No
Timestamp,20220208-113115
Status,Completed
Unauthorized_Changes_Found,No
Timestamp,20220208-114615
Status,Completed
Unauthorized_Changes_Found,No
Timestamp,20220208-120119
Status,Completed
Unauthorized_Changes_Found,No
Timestamp,20220208-121616
Status,Completed
Unauthorized_Changes_Found,No
Timestamp,20220208-123115
Status,Completed
Unauthorized_Changes_Found,No
Timestamp,20220208-124612
Status,Completed
Unauthorized_Changes_Found,No
Timestamp,20220208-130125
Status,Completed
Unauthorized_Changes_Found,No
Timestamp,20220208-131616
Status,Completed
Unauthorized_Changes_Found,No
Timestamp,20220208-133113
Status,Completed
Unauthorized_Changes_Found,No
Timestamp,20220208-134616
Status,Completed
Unauthorized_Changes_Found,No
Timestamp,20220208-140115
Status,Completed
Unauthorized_Changes_Found,No
Timestamp,20220208-141614
Status,Completed
Unauthorized_Changes_Found,No
Timestamp,20220208-143117
Status,Completed
Unauthorized_Changes_Found,No
Timestamp,20220208-144614
Status,Completed
Unauthorized_Changes_Found,No
Timestamp,20220208-150115
Status,Completed
Unauthorized_Changes_Found,No
Timestamp,20220208-151615
Status,Completed
Unauthorized_Changes_Found,No
Timestamp,20220208-153114
Status,Completed
Unauthorized_Changes_Found,No
Timestamp,20220208-154617
Status,Completed
Unauthorized_Changes_Found,No
Timestamp,20220208-160112
Status,Completed
Unauthorized_Changes_Found,No
Timestamp,20220208-161615
Status,Completed
Unauthorized_Changes_Found,No
Timestamp,20220208-163115
Status,Completed
Unauthorized_Changes_Found,No
Timestamp,20220208-164619
Status,Completed
Unauthorized_Changes_Found,No
Timestamp,20220208-170123
Status,Completed
Unauthorized_Changes_Found,No
Timestamp,20220208-171617
Status,Completed
Unauthorized_Changes_Found,No
Timestamp,20220208-173113
Status,Completed
Unauthorized_Changes_Found,No
Timestamp,20220208-174614
Status,Completed
Unauthorized_Changes_Found,No
Timestamp,20220208-180125
Status,Completed
Unauthorized_Changes_Found,No
Timestamp,20220208-181616
Status,Completed
Unauthorized_Changes_Found,No
Timestamp,20220208-183110
Status,Completed
Unauthorized_Changes_Found,No
Timestamp,20220208-184616
Status,Completed
Unauthorized_Changes_Found,No
Timestamp,20220208-190115
Status,Completed
Unauthorized_Changes_Found,No
Timestamp,20220208-191642
Status,Completed
Unauthorized_Changes_Found,No
Timestamp,20220208-193112
Status,Completed
Unauthorized_Changes_Found,No
Timestamp,20220208-194614
Status,Completed
Unauthorized_Changes_Found,No
Timestamp,20220208-200114
Status,Completed
Unauthorized_Changes_Found,No
Timestamp,20220208-201616
Status,Completed
Unauthorized_Changes_Found,No
Timestamp,20220208-203115
Status,Completed
Unauthorized_Changes_Found,No
Timestamp,20220208-204615
Status,Completed
Unauthorized_Changes_Found,No
Timestamp,20220208-210121
Status,Completed
Unauthorized_Changes_Found,No
Timestamp,20220208-211615
Status,Completed
Unauthorized_Changes_Found,No
Timestamp,20220208-213111
Status,Completed
Unauthorized_Changes_Found,No
Timestamp,20220208-214617
Status,Completed
Unauthorized_Changes_Found,No
Timestamp,20220208-220111
Status,Completed
Unauthorized_Changes_Found,No
Timestamp,20220208-221614
Status,Completed
Unauthorized_Changes_Found,No
Timestamp,20220208-223118
Status,Completed
Unauthorized_Changes_Found,No
Timestamp,20220208-224613
Status,Completed
Unauthorized_Changes_Found,No
Timestamp,20220208-230130
Status,Completed
Unauthorized_Changes_Found,No
Timestamp,20220208-231610
Status,Completed
Unauthorized_Changes_Found,No
Timestamp,20220208-233112
Status,Completed
Unauthorized_Changes_Found,No
Timestamp,20220208-234612
Status,Completed
Unauthorized_Changes_Found,No
Timestamp,20220209-000120
Status,Completed
Unauthorized_Changes_Found,No
Timestamp,20220209-001620
Status,Completed
Unauthorized_Changes_Found,No
Timestamp,20220209-003123
Status,Completed
Unauthorized_Changes_Found,No
Timestamp,20220209-004619
Status,Completed
Unauthorized_Changes_Found,No
Timestamp,20220209-010121
Status,Completed
Unauthorized_Changes_Found,No
Timestamp,20220209-011623
Status,Completed
Unauthorized_Changes_Found,No
Timestamp,20220209-013118
Status,Completed
Unauthorized_Changes_Found,No
Timestamp,20220209-014616
Status,Completed
Unauthorized_Changes_Found,No
Timestamp,20220209-021733
Status,Completed
Unauthorized_Changes_Found,No
Timestamp,20220209-021811
Status,Completed
Unauthorized_Changes_Found,No
Timestamp,20220209-023112
Status,Completed
Unauthorized_Changes_Found,No
Timestamp,20220209-024611
Status,Completed
Unauthorized_Changes_Found,No
Timestamp,20220209-030122
Status,Completed
Unauthorized_Changes_Found,No
Timestamp,20220209-031616
Status,Completed
Unauthorized_Changes_Found,No
Timestamp,20220209-033112
Status,Completed
Unauthorized_Changes_Found,No
Timestamp,20220209-034616
Status,Completed
Unauthorized_Changes_Found,No
Timestamp,20220209-040117
Status,Completed
Unauthorized_Changes_Found,No
Timestamp,20220209-041616
Status,Completed
Unauthorized_Changes_Found,No
Timestamp,20220209-043116
Status,Completed
Unauthorized_Changes_Found,No
Timestamp,20220209-044615
Status,Completed
Unauthorized_Changes_Found,No
Timestamp,20220209-050119
Status,Completed
Unauthorized_Changes_Found,No
Timestamp,20220209-051618
Status,Completed
Unauthorized_Changes_Found,No
Timestamp,20220209-053113
Status,Completed
Unauthorized_Changes_Found,No
Timestamp,20220209-054617
Status,Completed
Unauthorized_Changes_Found,No
Timestamp,20220209-060127
Status,Completed
Unauthorized_Changes_Found,No
Timestamp,20220209-061614
Status,Completed
Unauthorized_Changes_Found,No
Timestamp,20220209-063117
Status,Completed
Unauthorized_Changes_Found,No
Timestamp,20220209-064613
Status,Completed
Unauthorized_Changes_Found,No
Timestamp,20220209-070116
Status,Completed
Unauthorized_Changes_Found,No
Timestamp,20220209-071618
Status,Completed
Unauthorized_Changes_Found,No
Timestamp,20220209-073115
Status,Completed
Unauthorized_Changes_Found,No
Timestamp,20220209-074611
Status,Completed
Unauthorized_Changes_Found,No
Timestamp,20220209-080128
Status,Completed
Unauthorized_Changes_Found,No
Timestamp,20220209-081616
Status,Completed
Unauthorized_Changes_Found,No
Timestamp,20220209-083111
Status,Completed
Unauthorized_Changes_Found,No
Timestamp,20220209-084613
Status,Completed
Unauthorized_Changes_Found,No
Timestamp,20220209-090115
Status,Completed
Unauthorized_Changes_Found,No
Timestamp,20220209-091615
Status,Completed
Unauthorized_Changes_Found,No
Timestamp,20220209-093112
Status,Completed
Unauthorized_Changes_Found,No
Timestamp,20220209-094614
Status,Completed
Unauthorized_Changes_Found,No
Timestamp,20220209-100119
Status,Completed
Unauthorized_Changes_Found,No
Timestamp,20220209-101616
Status,Completed
Unauthorized_Changes_Found,No
Timestamp,20220209-103113
Status,Completed
Unauthorized_Changes_Found,No
Timestamp,20220209-104615
Status,Completed
Unauthorized_Changes_Found,No
Timestamp,20220209-110117
Status,Completed
Unauthorized_Changes_Found,No
Timestamp,20220209-111612
Status,Completed
Unauthorized_Changes_Found,No
Timestamp,20220209-113112
Status,Completed
Unauthorized_Changes_Found,No
Timestamp,20220209-114616
Status,Completed
Unauthorized_Changes_Found,No
Timestamp,20220209-120117
Status,Completed
Unauthorized_Changes_Found,No
Timestamp,20220209-121615
Status,Completed
Unauthorized_Changes_Found,No
Timestamp,20220209-123114
Status,Completed
Unauthorized_Changes_Found,No
Timestamp,20220209-124614
Status,Completed
Unauthorized_Changes_Found,No
Timestamp,20220209-130121
Status,Completed
Unauthorized_Changes_Found,No
Timestamp,20220209-131615
Status,Completed
Unauthorized_Changes_Found,No
Timestamp,20220209-133114
Status,Completed
Unauthorized_Changes_Found,No
Timestamp,20220209-134612
Status,Completed
Unauthorized_Changes_Found,No
Timestamp,20220209-140125
Status,Completed
Unauthorized_Changes_Found,No
Timestamp,20220209-141612
Status,Completed
Unauthorized_Changes_Found,No
Timestamp,20220209-143116
Status,Completed
Unauthorized_Changes_Found,No
Timestamp,20220209-144613
Status,Completed
Unauthorized_Changes_Found,No
Timestamp,20220209-150118
Status,Completed
Unauthorized_Changes_Found,No
Timestamp,20220209-151616
Status,Completed
Unauthorized_Changes_Found,No
Timestamp,20220209-153116
Status,Completed
Unauthorized_Changes_Found,No
Timestamp,20220209-154614
Status,Completed
Unauthorized_Changes_Found,No
Timestamp,20220209-160116
Status,Completed
Unauthorized_Changes_Found,No
Timestamp,20220209-161616
Status,Completed
Unauthorized_Changes_Found,No
Timestamp,20220209-163115
Status,Completed
Unauthorized_Changes_Found,No
Timestamp,20220209-164611
Status,Completed
Unauthorized_Changes_Found,No
Timestamp,20220209-170119
Status,Completed
Unauthorized_Changes_Found,No
Timestamp,20220209-171617
Status,Completed
Unauthorized_Changes_Found,No
Timestamp,20220209-173112
Status,Completed
Unauthorized_Changes_Found,No
Timestamp,20220209-174616
Status,Completed
Unauthorized_Changes_Found,No
Timestamp,20220209-180114
Status,Completed
Unauthorized_Changes_Found,No
Timestamp,20220209-181617
Status,Completed
Unauthorized_Changes_Found,No
Timestamp,20220209-183114
Status,Completed
Unauthorized_Changes_Found,No
Timestamp,20220209-184614
Status,Completed
Unauthorized_Changes_Found,No
Timestamp,20220209-190112
Status,Completed
Unauthorized_Changes_Found,No
Timestamp,20220209-191647
Status,Completed
Unauthorized_Changes_Found,No
Timestamp,20220209-193112
Status,Completed
Unauthorized_Changes_Found,No
Timestamp,20220209-194615
Status,Completed
Unauthorized_Changes_Found,No
Timestamp,20220209-200130
Status,Completed
Unauthorized_Changes_Found,No
Timestamp,20220209-201614
Status,Completed
Unauthorized_Changes_Found,No
Timestamp,20220209-203118
Status,Completed
Unauthorized_Changes_Found,No
Timestamp,20220209-204615
Status,Completed
Unauthorized_Changes_Found,No
Timestamp,20220209-210121
Status,Completed
Unauthorized_Changes_Found,No
Timestamp,20220209-211617
Status,Completed
Unauthorized_Changes_Found,No
Timestamp,20220209-213114
Status,Completed
Unauthorized_Changes_Found,No
Timestamp,20220209-214614
Status,Completed
Unauthorized_Changes_Found,No
Timestamp,20220209-220120
Status,Completed
Unauthorized_Changes_Found,No
Timestamp,20220209-221615
Status,Completed
Unauthorized_Changes_Found,No
Timestamp,20220209-223115
Status,Completed
Unauthorized_Changes_Found,No
Timestamp,20220209-224612
Status,Completed
Unauthorized_Changes_Found,No
Timestamp,20220209-230120
Status,Completed
Unauthorized_Changes_Found,No
Timestamp,20220209-231608
Status,Completed
Unauthorized_Changes_Found,No
Timestamp,20220209-233115
Status,Completed
Unauthorized_Changes_Found,No
Timestamp,20220209-234614
Status,Completed
Unauthorized_Changes_Found,No
Timestamp,20220210-000327
Status,Completed
Unauthorized_Changes_Found,No
Timestamp,20220210-001621
Status,Completed
Unauthorized_Changes_Found,No
Timestamp,20220210-003119
Status,Completed
Unauthorized_Changes_Found,No
Timestamp,20220210-004619
Status,Completed
Unauthorized_Changes_Found,No
Timestamp,20220210-010125
Status,Completed
Unauthorized_Changes_Found,No
Timestamp,20220210-011622
Status,Completed
Unauthorized_Changes_Found,No
Timestamp,20220210-013112
Status,Completed
Unauthorized_Changes_Found,No
Timestamp,20220210-014609
Status,Completed
Unauthorized_Changes_Found,No
Timestamp,20220210-020121
Status,Completed
Unauthorized_Changes_Found,No
Timestamp,20220210-021616
Status,Completed
Unauthorized_Changes_Found,No
Timestamp,20220210-023113
Status,Completed
Unauthorized_Changes_Found,No
Timestamp,20220210-024614
Status,Completed
Unauthorized_Changes_Found,No
Timestamp,20220210-030114
Status,Completed
Unauthorized_Changes_Found,No
Timestamp,20220210-031619
Status,Completed
Unauthorized_Changes_Found,No
Timestamp,20220210-033114
Status,Completed
Unauthorized_Changes_Found,No
Timestamp,20220210-034615
Status,Completed
Unauthorized_Changes_Found,No
Timestamp,20220210-040126
Status,Completed
Unauthorized_Changes_Found,No
Timestamp,20220210-041618
Status,Completed
Unauthorized_Changes_Found,No
Timestamp,20220210-043112
Status,Completed
Unauthorized_Changes_Found,No
Timestamp,20220210-044613
Status,Completed
Unauthorized_Changes_Found,No
Timestamp,20220210-050127
Status,Completed
Unauthorized_Changes_Found,No
Timestamp,20220210-051616
Status,Completed
Unauthorized_Changes_Found,No
Timestamp,20220210-053119
Status,Completed
Unauthorized_Changes_Found,No
Timestamp,20220210-054613
Status,Completed
Unauthorized_Changes_Found,No
Timestamp,20220210-060119
Status,Completed
Unauthorized_Changes_Found,No
Timestamp,20220210-061619
Status,Completed
Unauthorized_Changes_Found,No
Timestamp,20220210-063115
Status,Completed
Unauthorized_Changes_Found,No
Timestamp,20220210-064619
Status,Completed
Unauthorized_Changes_Found,No
Timestamp,20220210-070135
Status,Completed
Unauthorized_Changes_Found,No
Timestamp,20220210-071620
Status,Completed
Unauthorized_Changes_Found,No
Timestamp,20220210-073115
Status,Completed
Unauthorized_Changes_Found,No
Timestamp,20220210-074619
Status,Completed
Unauthorized_Changes_Found,No
Timestamp,20220210-080120
Status,Completed
Unauthorized_Changes_Found,No
Timestamp,20220210-081618
Status,Completed
Unauthorized_Changes_Found,No
Timestamp,20220210-083117
Status,Completed
Unauthorized_Changes_Found,No
Timestamp,20220210-084615
Status,Completed
Unauthorized_Changes_Found,No
Timestamp,20220210-090126
Status,Completed
Unauthorized_Changes_Found,No
Timestamp,20220210-091621
Status,Completed
Unauthorized_Changes_Found,No
Timestamp,20220210-093121
Status,Completed
Unauthorized_Changes_Found,No
Timestamp,20220210-094619
Status,Completed
Unauthorized_Changes_Found,No
Timestamp,20220210-100120
Status,Completed
Unauthorized_Changes_Found,No
Timestamp,20220210-101620
Status,Completed
Unauthorized_Changes_Found,No
Timestamp,20220210-103117
Status,Completed
Unauthorized_Changes_Found,No
Timestamp,20220210-104616
Status,Completed
Unauthorized_Changes_Found,No
Timestamp,20220210-110125
Status,Completed
Unauthorized_Changes_Found,No
Timestamp,20220210-111620
Status,Completed
Unauthorized_Changes_Found,No
Timestamp,20220210-113114
Status,Completed
Unauthorized_Changes_Found,No
Timestamp,20220210-114616
Status,Completed
Unauthorized_Changes_Found,No
Timestamp,20220210-120119
Status,Completed
Unauthorized_Changes_Found,No
Timestamp,20220210-121619
Status,Completed
Unauthorized_Changes_Found,No
Timestamp,20220210-123115
Status,Completed
Unauthorized_Changes_Found,No
Timestamp,20220210-124614
Status,Completed
Unauthorized_Changes_Found,No
Timestamp,20220210-130120
Status,Completed
Unauthorized_Changes_Found,No
Timestamp,20220210-131622
Status,Completed
Unauthorized_Changes_Found,No
Timestamp,20220210-133116
Status,Completed
Unauthorized_Changes_Found,No
Timestamp,20220210-134616
Status,Completed
Unauthorized_Changes_Found,No
Timestamp,20220210-140125
Status,Completed
Unauthorized_Changes_Found,No
Timestamp,20220210-141616
Status,Completed
Unauthorized_Changes_Found,No
Timestamp,20220210-143123
Status,Completed
Unauthorized_Changes_Found,No
Timestamp,20220210-144617
Status,Completed
Unauthorized_Changes_Found,No
Timestamp,20220210-150119
Status,Completed
Unauthorized_Changes_Found,No
Timestamp,20220210-151618
Status,Completed
Unauthorized_Changes_Found,No
Timestamp,20220210-153115
Status,Completed
Unauthorized_Changes_Found,No
Timestamp,20220210-154620
Status,Completed
Unauthorized_Changes_Found,No
Timestamp,20220210-160127
Status,Completed
Unauthorized_Changes_Found,No
Timestamp,20220210-161617
Status,Completed
Unauthorized_Changes_Found,No
Timestamp,20220210-163121
Status,Completed
Unauthorized_Changes_Found,No
Timestamp,20220210-164618
Status,Completed
Unauthorized_Changes_Found,No
Timestamp,20220210-170132
Status,Completed
Unauthorized_Changes_Found,No
Timestamp,20220210-171618
Status,Completed
Unauthorized_Changes_Found,No
Timestamp,20220210-173113
Status,Completed
Unauthorized_Changes_Found,No
Timestamp,20220210-174617
Status,Completed
Unauthorized_Changes_Found,No
Timestamp,20220210-180127
Status,Completed
Unauthorized_Changes_Found,No
Timestamp,20220210-181619
Status,Completed
Unauthorized_Changes_Found,No
Timestamp,20220210-183117
Status,Completed
Unauthorized_Changes_Found,No
Timestamp,20220210-184615
Status,Completed
Unauthorized_Changes_Found,No
Timestamp,20220210-190124
Status,Completed
Unauthorized_Changes_Found,No
Timestamp,20220210-191646
Status,Completed
Unauthorized_Changes_Found,No
Timestamp,20220210-193118
Status,Completed
Unauthorized_Changes_Found,No
Timestamp,20220210-194614
Status,Completed
Unauthorized_Changes_Found,No
Timestamp,20220210-200123
Status,Completed
Unauthorized_Changes_Found,No
Timestamp,20220210-201618
Status,Completed
Unauthorized_Changes_Found,No
